{"700439": {"name": "Lefflersgatan", "location": {"latitude": 59.856748332623305, "longitude": 17.69546427424105}}, "700441": {"name": "Södra Slavstavägen", "location": {"latitude": 59.85899499462221, "longitude": 17.705926831597065}}, "700443": {"name": "Solrosgatan", "location": {"latitude": 59.85760320923873, "longitude": 17.659314709964228}}, "700444": {"name": "Klarbärsgatan", "location": {"latitude": 59.860590918126604, "longitude": 17.70794574015673}}, "700445": {"name": "Hjortrongatan", "location": {"latitude": 59.86363833621282, "longitude": 17.709547936761496}}, "700446": {"name": "Smålandsvägen", "location": {"latitude": 59.80609709743128, "longitude": 17.691420933821167}}, "700449": {"name": "Leopoldsgatan", "location": {"latitude": 59.88983073925301, "longitude": 17.649353266674357}}, "700450": {"name": "Mistelgatan södra", "location": {"latitude": 59.85861444560155, "longitude": 17.681111819053104}}, "700466": {"name": "Byggmästarparken", "location": {"latitude": 59.86391716005134, "longitude": 17.67250190072209}}, "700467": {"name": "Snickaren", "location": {"latitude": 59.86489008529892, "longitude": 17.679858308211003}}, "700468": {"name": "Stagneliusgatan", "location": {"latitude": 59.873350224199065, "longitude": 17.649762315060343}}, "700469": {"name": "Bellmansskolan", "location": {"latitude": 59.87628732292029, "longitude": 17.654157548082033}}, "700471": {"name": "Servicehuset Galaxen", "location": {"latitude": 59.81463431468134, "longitude": 17.6258220008707}}, "700475": {"name": "Artillerigatan", "location": {"latitude": 59.84607436315665, "longitude": 17.629804076371205}}, "700476": {"name": "Sävja Vårdcentral", "location": {"latitude": 59.809554673284815, "longitude": 17.70446697058143}}, "700477": {"name": "Skogsblomman", "location": {"latitude": 59.806695129355155, "longitude": 17.692292337610542}}, "700488": {"name": "Stenhagens Centrum", "location": {"latitude": 59.85087870632697, "longitude": 17.55966795217738}}, "700491": {"name": "Tartugatan", "location": {"latitude": 59.852297094645394, "longitude": 17.613458573659127}}, "700492": {"name": "Akademiska ing 30-50", "location": {"latitude": 59.851182609128664, "longitude": 17.640166296502215}}, "700493": {"name": "Akademiska ing 60-70", "location": {"latitude": 59.8490599851058, "longitude": 17.64172686313716}}, "700495": {"name": "Botvidsgatan", "location": {"latitude": 59.86477457915793, "longitude": 17.644092452635437}}, "700499": {"name": "Coop Forum/IKEA", "location": {"latitude": 59.84603365795678, "longitude": 17.69383986672424}}, "700512": {"name": "U:a Business Park Ö.", "location": {"latitude": 59.849742981618924, "longitude": 17.708718588564086}}, "700513": {"name": "U:a Business Park V.", "location": {"latitude": 59.85008756747644, "longitude": 17.70101126886606}}, "700514": {"name": "Engelska parken", "location": {"latitude": 59.853322993921516, "longitude": 17.628915795030462}}, "700515": {"name": "Skogsvallen", "location": {"latitude": 59.95517594757168, "longitude": 17.71232527262549}}, "700517": {"name": "Stenhagens köpcentrum", "location": {"latitude": 59.84978381902829, "longitude": 17.560984363965417}}, "700523": {"name": "Småstensvägen", "location": {"latitude": 59.85324828557827, "longitude": 17.552957538966115}}, "700524": {"name": "Havrevägen", "location": {"latitude": 59.82090302700213, "longitude": 17.697000113188707}}, "700525": {"name": "Uppsala Science Park", "location": {"latitude": 59.84316874708545, "longitude": 17.638619243008474}}, "700527": {"name": "Allianshallen", "location": {"latitude": 59.85330147863001, "longitude": 17.710367367164732}}, "700531": {"name": "Sofielundsgatan", "location": {"latitude": 59.85234559793181, "longitude": 17.665429125948936}}, "700532": {"name": "Auroragatan", "location": {"latitude": 59.87121530356421, "longitude": 17.630930768117125}}, "700533": {"name": "Viktor Rydbergsgatan", "location": {"latitude": 59.88748051423431, "longitude": 17.65497562843569}}, "700536": {"name": "Stenhagen"}, "700537": {"name": "Röbo", "location": {"latitude": 59.88503664668014, "longitude": 17.619577023257424}}, "700538": {"name": "Garnisonen", "location": {"latitude": 59.887900165297836, "longitude": 17.607173925145936}}, "700539": {"name": "Strandbodgatan", "location": {"latitude": 59.85316841234268, "longitude": 17.653535614859056}}, "700541": {"name": "Molngatan", "location": {"latitude": 59.86958453853934, "longitude": 17.662820435523393}}, "700542": {"name": "Regngatan", "location": {"latitude": 59.870618373611634, "longitude": 17.66527078800468}}, "700543": {"name": "Polishuset", "location": {"latitude": 59.86663734278948, "longitude": 17.62957300733356}}, "700544": {"name": "Forsmarksparken", "location": {"latitude": 59.87401267671468, "longitude": 17.595208133692346}}, "700545": {"name": "Nyodlarvägen", "location": {"latitude": 59.950538294183055, "longitude": 17.54772947676005}}, "700549": {"name": "Börjegatan", "location": {"latitude": 59.86266316412136, "longitude": 17.6137174846692}}, "700550": {"name": "Bolandsparken", "location": {"latitude": 59.85806637467351, "longitude": 17.67419111320066}}, "700551": {"name": "Snickargatan", "location": {"latitude": 59.86311245367069, "longitude": 17.683007396226337}}, "700552": {"name": "Klockarängen", "location": {"latitude": 59.86956937427194, "longitude": 17.617484825733246}}, "700554": {"name": "Nåntuna Backe", "location": {"latitude": 59.80238908184866, "longitude": 17.683887695402472}}, "700555": {"name": "Lugnet", "location": {"latitude": 59.792568159349024, "longitude": 17.674339351560672}}, "700556": {"name": "Gränby vårdcentral", "location": {"latitude": 59.878243656228165, "longitude": 17.67205483872355}}, "700557": {"name": "Heimdalsvägen", "location": {"latitude": 59.803913356398525, "longitude": 17.64590914110569}}, "700558": {"name": "Fullerö", "location": {"latitude": 59.93789619048849, "longitude": 17.649569119142228}}, "700560": {"name": "Fyrishovs entré", "location": {"latitude": 59.87093472811906, "longitude": 17.62395154066837}}, "700566": {"name": "Seminariegatan", "location": {"latitude": 59.86966864124128, "longitude": 17.61352634979187}}, "700567": {"name": "Nyby köpcentrum", "location": {"latitude": 59.886218918010144, "longitude": 17.661694006245487}}, "700568": {"name": "Täljstensvägen", "location": {"latitude": 59.837390588358346, "longitude": 17.614327345368274}}, "700569": {"name": "Berthåga kyrkogård", "location": {"latitude": 59.85865646353138, "longitude": 17.574892090107852}}, "700570": {"name": "Stenhagens IP", "location": {"latitude": 59.84993554690013, "longitude": 17.554978775628893}}, "700571": {"name": "Kiselvägen", "location": {"latitude": 59.8518080430648, "longitude": 17.554595208783667}}, "700572": {"name": "Polacksbacken", "location": {"latitude": 59.84006841609739, "longitude": 17.64783245632474}}, "700574": {"name": "Ekudden", "location": {"latitude": 59.8271155210966, "longitude": 17.654054202783573}}, "700575": {"name": "Blåsenhus", "location": {"latitude": 59.85165696902712, "longitude": 17.629931103809334}}, "700576": {"name": "Idrottsgatan", "location": {"latitude": 59.87244876146301, "longitude": 17.624837751916242}}, "700578": {"name": "Svandammen", "location": {"latitude": 59.85355995319847, "longitude": 17.639654654481756}}, "700579": {"name": "Slädvägen", "location": {"latitude": 59.8227408558795, "longitude": 17.625871841998684}}, "700581": {"name": "Väderkvarnsgatan", "location": {"latitude": 59.86420241466229, "longitude": 17.64391806087606}}, "700582": {"name": "Polhemsparken", "location": {"latitude": 59.85575880637127, "longitude": 17.603241065833256}}, "700583": {"name": "Evolutionsmuseet", "location": {"latitude": 59.85060979406897, "longitude": 17.624502411929097}}, "700584": {"name": "Ullforsgatan", "location": {"latitude": 59.879779657046676, "longitude": 17.589016806689855}}, "700585": {"name": "Skoghall", "location": {"latitude": 59.84560858941252, "longitude": 17.62453291153316}}, "700586": {"name": "Tackjärnsgatan", "location": {"latitude": 59.84709540620593, "longitude": 17.680481646077897}}, "700587": {"name": "Akademiska sjukhuset", "location": {"latitude": 59.85008922428074, "longitude": 17.643246834679722}}, "700588": {"name": "Akademiska ing 10", "location": {"latitude": 59.85235951287838, "longitude": 17.6388212224738}}, "700589": {"name": "Bror Hjorths Hus", "location": {"latitude": 59.84892690197585, "longitude": 17.61893242540032}}, "700591": {"name": "Stadsbiblioteket", "location": {"latitude": 59.86113762756271, "longitude": 17.635769657182117}}, "700593": {"name": "Akademiska sjh västra", "location": {"latitude": 59.849367210651124, "longitude": 17.636426113805346}}, "700594": {"name": "S:t Persgatan", "location": {"latitude": 59.86210986120304, "longitude": 17.642677977892102}}, "700595": {"name": "Karin Boyegatan", "location": {"latitude": 59.87978111302047, "longitude": 17.645724698183095}}, "700596": {"name": "Kungsängsgatan", "location": {"latitude": 59.84856106571215, "longitude": 17.658758396261792}}, "700599": {"name": "Naturstensvägen", "location": {"latitude": 59.8482321441535, "longitude": 17.554122129213315}}, "700600": {"name": "Centralstationen", "location": {"latitude": 59.857830647700496, "longitude": 17.64629749448148}}, "700602": {"name": "Götgatan", "location": {"latitude": 59.86408511852622, "longitude": 17.626505502340777}}, "700604": {"name": "Bolandgymnasiet", "location": {"latitude": 59.85571686855034, "longitude": 17.666384710766145}}, "700605": {"name": "Ekeby bruk", "location": {"latitude": 59.84866162910315, "longitude": 17.610138733917708}}, "700607": {"name": "Kungshögarna", "location": {"latitude": 59.897444411373385, "longitude": 17.635157199628797}}, "700608": {"name": "Säbygatan", "location": {"latitude": 59.85645904066831, "longitude": 17.65768041033168}}, "700609": {"name": "Emmy Rappes väg", "location": {"latitude": 59.83354755297971, "longitude": 17.649951559058366}}, "700610": {"name": "Hedensbergsvägen", "location": {"latitude": 59.85072718713566, "longitude": 17.572347707135634}}, "700611": {"name": "Oslogatan", "location": {"latitude": 59.852064743792525, "longitude": 17.60354154000532}}, "700612": {"name": "Mejramsvägen", "location": {"latitude": 59.95619495134049, "longitude": 17.688878127627863}}, "700613": {"name": "Takpannegatan", "location": {"latitude": 59.88495814785258, "longitude": 17.670234038410925}}, "700001": {"name": "Stora Torget", "location": {"latitude": 59.858551892516026, "longitude": 17.63900119955939}}, "700002": {"name": "Östra Nyby", "location": {"latitude": 59.88666163915516, "longitude": 17.655108780434098}}, "700003": {"name": "Mimmi Ekholms plats", "location": {"latitude": 59.86559268722687, "longitude": 17.606967323429423}}, "700004": {"name": "Gottsunda Simhall", "location": {"latitude": 59.80862358381946, "longitude": 17.63132237560489}}, "700005": {"name": "Bandstolsvägen", "location": {"latitude": 59.81351603031682, "longitude": 17.62228510321368}}, "700006": {"name": "Cellovägen", "location": {"latitude": 59.805538559980306, "longitude": 17.637533669161822}}, "700008": {"name": "Jordgubbsgatan", "location": {"latitude": 59.864274145809546, "longitude": 17.70219318936113}}, "700009": {"name": "Flöjtvägen", "location": {"latitude": 59.803725633782825, "longitude": 17.632319861840042}}, "700010": {"name": "Solistvägen", "location": {"latitude": 59.80303139176553, "longitude": 17.628646671724553}}, "700011": {"name": "Jenny Linds väg", "location": {"latitude": 59.80457116616663, "longitude": 17.628320846015328}}, "700012": {"name": "Vackra Birgers väg", "location": {"latitude": 59.80701531310948, "longitude": 17.624925524296362}}, "700013": {"name": "Bröderna Berwalds v.", "location": {"latitude": 59.809968860219044, "longitude": 17.62494385667464}}, "700014": {"name": "Gottsunda Centrum", "location": {"latitude": 59.811202776698806, "longitude": 17.62725692023475}}, "700016": {"name": "Linrepevägen", "location": {"latitude": 59.813244645095814, "longitude": 17.634747946398196}}, "700017": {"name": "Barkspadevägen", "location": {"latitude": 59.81819890847748, "longitude": 17.633575363441757}}, "700018": {"name": "Fältvägen", "location": {"latitude": 59.822629257477864, "longitude": 17.62615103791924}}, "700019": {"name": "Valsätraskolan", "location": {"latitude": 59.82146813786079, "longitude": 17.628958259733377}}, "700020": {"name": "Tallbacksvägen", "location": {"latitude": 59.82653076051228, "longitude": 17.629680689000008}}, "700021": {"name": "Grindstugan", "location": {"latitude": 59.83999200387603, "longitude": 17.639800445254487}}, "700022": {"name": "Rosendals skola", "location": {"latitude": 59.83254937720643, "longitude": 17.63978361417938}}, "700025": {"name": "Akademiska sjh södra", "location": {"latitude": 59.84679532335304, "longitude": 17.63801567331569}}, "700031": {"name": "Dragarbrunn", "location": {"latitude": 59.859304046312374, "longitude": 17.640434868304123}}, "700032": {"name": "Klostergatan", "location": {"latitude": 59.86122077642062, "longitude": 17.63818409139442}}, "700034": {"name": "Finn Malmgrens plan", "location": {"latitude": 59.861210457529104, "longitude": 17.627276658470667}}, "700035": {"name": "Luthagsesplanaden", "location": {"latitude": 59.862795417491846, "longitude": 17.624328527003087}}, "700036": {"name": "Geijersgatan", "location": {"latitude": 59.860898814108495, "longitude": 17.614710636806517}}, "700037": {"name": "Vindhemskyrkan", "location": {"latitude": 59.862589981020434, "longitude": 17.619693767504256}}, "700038": {"name": "Bredmansgatan", "location": {"latitude": 59.86115584963757, "longitude": 17.61625975397928}}, "700039": {"name": "Sibyllegatan", "location": {"latitude": 59.85952058654408, "longitude": 17.613082880849014}}, "700043": {"name": "Stabby prästgård", "location": {"latitude": 59.86313711147426, "longitude": 17.604674508373083}}, "700047": {"name": "Brantingstorget", "location": {"latitude": 59.86776623551399, "longitude": 17.670146546927185}}, "700048": {"name": "Kastanjegatan", "location": {"latitude": 59.86689976850229, "longitude": 17.66729496271179}}, "700049": {"name": "Verkmästargatan", "location": {"latitude": 59.86502967137538, "longitude": 17.674456667643486}}, "700050": {"name": "Årsta Centrum", "location": {"latitude": 59.8653677311384, "longitude": 17.682884535795335}}, "700051": {"name": "Körvelgatan", "location": {"latitude": 59.86273317042849, "longitude": 17.693840003868033}}, "700052": {"name": "Kummingatan", "location": {"latitude": 59.86127582148762, "longitude": 17.68965164918886}}, "700053": {"name": "Årstagården", "location": {"latitude": 59.86094257110044, "longitude": 17.685955506017955}}, "700055": {"name": "Mistelgatan", "location": {"latitude": 59.86274677597504, "longitude": 17.679684188696733}}, "700058": {"name": "Byggmästargatan", "location": {"latitude": 59.86616431898358, "longitude": 17.66914635463354}}, "700059": {"name": "Björkgatan", "location": {"latitude": 59.86525066499616, "longitude": 17.663275114381854}}, "700060": {"name": "Österängsgatan södra", "location": {"latitude": 59.86391875062971, "longitude": 17.65839854802412}}, "700061": {"name": "Torkelsgatan södra", "location": {"latitude": 59.86296315267688, "longitude": 17.654203769681413}}, "700062": {"name": "Vaksala torg", "location": {"latitude": 59.862361838021016, "longitude": 17.647136898759456}}, "700063": {"name": "Stadshuset", "location": {"latitude": 59.86037792233787, "longitude": 17.642618199064085}}, "700064": {"name": "Trädgårdsgatan", "location": {"latitude": 59.85694855547488, "longitude": 17.63550391974688}}, "700065": {"name": "Slottsbacken", "location": {"latitude": 59.85476552206212, "longitude": 17.632367859171044}}, "700066": {"name": "Botaniska", "location": {"latitude": 59.85301569754669, "longitude": 17.632950129011405}}, "700067": {"name": "Villavägen norra", "location": {"latitude": 59.85246217391363, "longitude": 17.624942562134528}}, "700069": {"name": "Birkagatan", "location": {"latitude": 59.847320023274214, "longitude": 17.617613842528606}}, "700070": {"name": "Sommarro", "location": {"latitude": 59.844254721610675, "longitude": 17.61593072818061}}, "700071": {"name": "Lindsbergsgatan", "location": {"latitude": 59.841975408869835, "longitude": 17.61650277315764}}, "700072": {"name": "Täljstenen", "location": {"latitude": 59.8391103262085, "longitude": 17.613314593497815}}, "700073": {"name": "Kvickstensvägen", "location": {"latitude": 59.83609292215266, "longitude": 17.612062993245328}}, "700074": {"name": "Norra Parkvägen", "location": {"latitude": 59.83363834983928, "longitude": 17.614284425632277}}, "700075": {"name": "Södra Parkvägen", "location": {"latitude": 59.83068232440695, "longitude": 17.61640698049086}}, "700076": {"name": "Malma Bergsväg", "location": {"latitude": 59.829479222848725, "longitude": 17.617714886829713}}, "700077": {"name": "Svamptorget", "location": {"latitude": 59.8257926211131, "longitude": 17.618120972111377}}, "700078": {"name": "Björklundavägen", "location": {"latitude": 59.82182463289747, "longitude": 17.61614034239906}}, "700080": {"name": "Spinnrocksvägen", "location": {"latitude": 59.8190081047954, "longitude": 17.621817387788823}}, "700081": {"name": "August Södermans väg", "location": {"latitude": 59.815537768124365, "longitude": 17.619560730768455}}, "700083": {"name": "Morkullevägen", "location": {"latitude": 59.80301495438162, "longitude": 17.64402420393579}}, "700085": {"name": "Entitparken", "location": {"latitude": 59.79958519101605, "longitude": 17.644031444838223}}, "700086": {"name": "Långvägen", "location": {"latitude": 59.796793294669584, "longitude": 17.641436957725748}}, "700087": {"name": "Fiolbacken", "location": {"latitude": 59.80944531244769, "longitude": 17.632276283700733}}, "700091": {"name": "Fyristorg", "location": {"latitude": 59.85802693594531, "longitude": 17.636723325732245}}, "700092": {"name": "S:t Eriks torg", "location": {"latitude": 59.85859253747313, "longitude": 17.632845373181425}}, "700093": {"name": "Universitetet", "location": {"latitude": 59.85766195866511, "longitude": 17.628082234475432}}, "700094": {"name": "Kyrkogårdsgatan", "location": {"latitude": 59.8573428049588, "longitude": 17.62519113483519}}, "700095": {"name": "Kungsgärdets center", "location": {"latitude": 59.855921598198734, "longitude": 17.62083003529829}}, "700097": {"name": "Klangs gränd", "location": {"latitude": 59.85505024308198, "longitude": 17.612376425585055}}, "700098": {"name": "Helsingforsgatan", "location": {"latitude": 59.8532209711455, "longitude": 17.61090309633261}}, "700099": {"name": "Vänortsgatan", "location": {"latitude": 59.851902983224, "longitude": 17.610117889907805}}, "700100": {"name": "Nordengatan", "location": {"latitude": 59.85114559257453, "longitude": 17.606418599249775}}, "700101": {"name": "Ekebyhus", "location": {"latitude": 59.850596024203895, "longitude": 17.598662023760344}}, "700102": {"name": "Reykjaviksgatan", "location": {"latitude": 59.85067746751437, "longitude": 17.59993340182645}}, "700103": {"name": "Sernanders väg", "location": {"latitude": 59.8513357791958, "longitude": 17.5931162105802}}, "700104": {"name": "Flogsta centrum", "location": {"latitude": 59.85206092975884, "longitude": 17.586641401642975}}, "700105": {"name": "Flogsta vårdcentral", "location": {"latitude": 59.85089957076037, "longitude": 17.58222515554507}}, "700107": {"name": "Ihres väg", "location": {"latitude": 59.84704876396664, "longitude": 17.583500936369298}}, "700108": {"name": "Noreens väg", "location": {"latitude": 59.845876466059856, "longitude": 17.591182034954567}}, "700109": {"name": "Säves väg", "location": {"latitude": 59.84618595906984, "longitude": 17.59483849925454}}, "700110": {"name": "Saluhallen", "location": {"latitude": 59.85951799463766, "longitude": 17.632146419430995}}, "700111": {"name": "Gamla Torget", "location": {"latitude": 59.85896584524531, "longitude": 17.635703935611474}}, "700114": {"name": "Gamla Uppsala", "location": {"latitude": 59.89720282042755, "longitude": 17.637038154662875}}, "700115": {"name": "Regins väg", "location": {"latitude": 59.89497846402389, "longitude": 17.63687999650923}}, "700117": {"name": "Valhalls väg", "location": {"latitude": 59.89255475618994, "longitude": 17.64266083686106}}, "700118": {"name": "Huges väg", "location": {"latitude": 59.89206634077854, "longitude": 17.647422356639225}}, "700119": {"name": "Topeliusgatan", "location": {"latitude": 59.88976898965516, "longitude": 17.646705642288158}}, "700121": {"name": "Värnlundsgatan", "location": {"latitude": 59.88642472986003, "longitude": 17.643162164128807}}, "700122": {"name": "Ferlinsgatan", "location": {"latitude": 59.881654838533436, "longitude": 17.645917562152366}}, "700123": {"name": "Heidenstamstorg", "location": {"latitude": 59.877574706092965, "longitude": 17.64556705552683}}, "700124": {"name": "Kantorsgatan", "location": {"latitude": 59.874464131476444, "longitude": 17.641359295788952}}, "700125": {"name": "Djäknegatan", "location": {"latitude": 59.87134083413795, "longitude": 17.6393479584138}}, "700126": {"name": "Portalgatan", "location": {"latitude": 59.867943759224, "longitude": 17.639589470631762}}, "700127": {"name": "Höganäsgatan", "location": {"latitude": 59.86535242488837, "longitude": 17.641928406023652}}, "700128": {"name": "S:t Olofsgatan", "location": {"latitude": 59.86317712384413, "longitude": 17.640826662754993}}, "700129": {"name": "Ekonomikum", "location": {"latitude": 59.86026260670676, "longitude": 17.620495283493963}}, "700130": {"name": "Studentstaden", "location": {"latitude": 59.85758424320724, "longitude": 17.612870772941772}}, "700132": {"name": "Lagerlöfsgatan", "location": {"latitude": 59.88087798519161, "longitude": 17.655234040267707}}, "700134": {"name": "Almqvistgatan", "location": {"latitude": 59.87715963821256, "longitude": 17.655974061985308}}, "700135": {"name": "Levertinsgatan", "location": {"latitude": 59.87364684870927, "longitude": 17.653582409473923}}, "700137": {"name": "Bureusgatan", "location": {"latitude": 59.8702046344719, "longitude": 17.6474276177758}}, "700139": {"name": "Kvarntorget", "location": {"latitude": 59.866750740818674, "longitude": 17.646593925396356}}, "700140": {"name": "Nedre Slottsgatan", "location": {"latitude": 59.85574561252254, "longitude": 17.634848893108575}}, "700141": {"name": "Gränby Centrum", "location": {"latitude": 59.875991391293496, "longitude": 17.674500298612955}}, "700142": {"name": "Gränbyvägen", "location": {"latitude": 59.873539171865666, "longitude": 17.67141617990178}}, "700143": {"name": "Tövädersgatan", "location": {"latitude": 59.871936714229854, "longitude": 17.667915768410907}}, "700146": {"name": "Österängsgatan norra", "location": {"latitude": 59.866360869009306, "longitude": 17.6558384496259}}, "700147": {"name": "Torkelsgatan norra", "location": {"latitude": 59.8645404609308, "longitude": 17.65184546020307}}, "700148": {"name": "Vretgränd", "location": {"latitude": 59.85657939947721, "longitude": 17.64396163965418}}, "700152": {"name": "Bärbygatan", "location": {"latitude": 59.88548642424902, "longitude": 17.61820815507244}}, "700153": {"name": "Bärbyparken", "location": {"latitude": 59.8845058853021, "longitude": 17.615082287371628}}, "700154": {"name": "Flottiljgatan", "location": {"latitude": 59.88348217586692, "longitude": 17.609203411871768}}, "700155": {"name": "Flottörgatan", "location": {"latitude": 59.88199394601561, "longitude": 17.61298096115757}}, "700156": {"name": "Startgatan", "location": {"latitude": 59.88029329081134, "longitude": 17.61456758180771}}, "700157": {"name": "Fjärdhundragatan", "location": {"latitude": 59.8786652961748, "longitude": 17.618051166863044}}, "700158": {"name": "Väpnargatan", "location": {"latitude": 59.87647103099761, "longitude": 17.618967564769626}}, "700159": {"name": "Torbjörnsgatan", "location": {"latitude": 59.87460328743154, "longitude": 17.62159813876462}}, "700160": {"name": "Sköldungagatan", "location": {"latitude": 59.87329718899695, "longitude": 17.625812672520723}}, "700162": {"name": "Svartbäckens vårdc.", "location": {"latitude": 59.8691871495218, "longitude": 17.627623571089988}}, "700166": {"name": "Glimmervägen", "location": {"latitude": 59.840464403959906, "longitude": 17.607536591294647}}, "700167": {"name": "Fältspatsvägen", "location": {"latitude": 59.843042801003655, "longitude": 17.604785673722315}}, "700168": {"name": "Stigbergsvägen", "location": {"latitude": 59.84181573866473, "longitude": 17.60325656785296}}, "700169": {"name": "Västertorg", "location": {"latitude": 59.84062040955341, "longitude": 17.60203255934298}}, "700170": {"name": "Gnejsvägen", "location": {"latitude": 59.83984436596868, "longitude": 17.59638923896922}}, "700171": {"name": "Gnejsplan", "location": {"latitude": 59.840954630567815, "longitude": 17.59858963390818}}, "700172": {"name": "Skolgatan", "location": {"latitude": 59.86370453379992, "longitude": 17.634536031892484}}, "700173": {"name": "Flygargatan", "location": {"latitude": 59.88086637921529, "longitude": 17.61533103013701}}, "700183": {"name": "Krongatan", "location": {"latitude": 59.85121938869388, "longitude": 17.61936049577628}}, "700184": {"name": "Slöjdgatan", "location": {"latitude": 59.85255644721527, "longitude": 17.617452324425322}}, "700186": {"name": "Eriksbergsvägen", "location": {"latitude": 59.84568665658409, "longitude": 17.611030432243037}}, "700187": {"name": "Gustavsbergsgatan", "location": {"latitude": 59.84420303974787, "longitude": 17.614464907312936}}, "700188": {"name": "Hågaån", "location": {"latitude": 59.84248555952585, "longitude": 17.592962940939564}}, "700189": {"name": "Håga gård", "location": {"latitude": 59.839647633230406, "longitude": 17.58440864694364}}, "700191": {"name": "Håga", "location": {"latitude": 59.839304877045386, "longitude": 17.577201306319118}}, "700192": {"name": "Liljefors Torg", "location": {"latitude": 59.87026576221894, "longitude": 17.656519596885698}}, "700193": {"name": "Årstagatan", "location": {"latitude": 59.8690887802168, "longitude": 17.66359628029817}}, "700195": {"name": "Skomakargatan", "location": {"latitude": 59.87164145682282, "longitude": 17.669113509792524}}, "700196": {"name": "Källparksgatan", "location": {"latitude": 59.871192147993014, "longitude": 17.674213156101747}}, "700198": {"name": "Ritargatan", "location": {"latitude": 59.87337973464663, "longitude": 17.676960954109944}}, "700200": {"name": "Gröna gatan", "location": {"latitude": 59.8672457905139, "longitude": 17.6777233432386}}, "700201": {"name": "Axel Johanssons gata", "location": {"latitude": 59.857236592386805, "longitude": 17.689583938495097}}, "700202": {"name": "Stålgatan", "location": {"latitude": 59.85215921177737, "longitude": 17.685513555442412}}, "700203": {"name": "Hanselligatan", "location": {"latitude": 59.85210776087807, "longitude": 17.694130393298988}}, "700208": {"name": "Stenhagenskolan", "location": {"latitude": 59.85764590971671, "longitude": 17.56252289315616}}, "700209": {"name": "Herrhagens Byväg", "location": {"latitude": 59.85535885335704, "longitude": 17.556280698946843}}, "700212": {"name": "Stenröset", "location": {"latitude": 59.85245875629292, "longitude": 17.563712860710485}}, "700213": {"name": "Stenhällen", "location": {"latitude": 59.85494385470867, "longitude": 17.567877393550265}}, "700214": {"name": "Gatstenen", "location": {"latitude": 59.854005144477476, "longitude": 17.570933087437012}}, "700218": {"name": "Lundellska skolan", "location": {"latitude": 59.83870047406017, "longitude": 17.6512711552147}}, "700219": {"name": "Uppsala Folkhögskola", "location": {"latitude": 59.835642585819905, "longitude": 17.649728488231943}}, "700221": {"name": "Gustaf Kjellbergs väg", "location": {"latitude": 59.83161749635428, "longitude": 17.64993403461668}}, "700222": {"name": "Kronparksgården", "location": {"latitude": 59.82896350080668, "longitude": 17.65032233951063}}, "700223": {"name": "SVA", "location": {"latitude": 59.821983586009665, "longitude": 17.65635531028587}}, "700224": {"name": "Veterinärvägen", "location": {"latitude": 59.81896571193748, "longitude": 17.657079394377153}}, "700225": {"name": "Campus Ultuna", "location": {"latitude": 59.815487179421915, "longitude": 17.659275220637134}}, "700226": {"name": "Djursjukhuset", "location": {"latitude": 59.813415087828474, "longitude": 17.659142347781806}}, "700227": {"name": "Arrheniusplan", "location": {"latitude": 59.813083472246454, "longitude": 17.66673531528767}}, "700228": {"name": "Storvreta bibliotek", "location": {"latitude": 59.96039104938733, "longitude": 17.703063841809985}}, "700229": {"name": "Lingonvägen", "location": {"latitude": 59.958977282562216, "longitude": 17.72199688601281}}, "700230": {"name": "Stubbåkersvägen", "location": {"latitude": 59.955995806218425, "longitude": 17.68899214390103}}, "700231": {"name": "Rosmarinvägen", "location": {"latitude": 59.95792063164179, "longitude": 17.69440069574809}}, "700232": {"name": "Storvreta Centrum", "location": {"latitude": 59.95946150850341, "longitude": 17.705893251521914}}, "700233": {"name": "Adolfsbergsvägen", "location": {"latitude": 59.95854508206602, "longitude": 17.710298772717717}}, "700234": {"name": "Alkärrsvägen", "location": {"latitude": 59.957247252808614, "longitude": 17.715613071050345}}, "700235": {"name": "Ekorrvägen", "location": {"latitude": 59.95635164598031, "longitude": 17.716080706566288}}, "700237": {"name": "Tistelvägen", "location": {"latitude": 59.951789728940085, "longitude": 17.70869400308635}}, "700238": {"name": "Solstrålevägen", "location": {"latitude": 59.95134786181976, "longitude": 17.698841756047134}}, "700239": {"name": "Månskensvägen", "location": {"latitude": 59.95017397085668, "longitude": 17.694926533256027}}, "700240": {"name": "Himmelsvägen", "location": {"latitude": 59.952253760467066, "longitude": 17.69012236187664}}, "700241": {"name": "Vintergatsvägen", "location": {"latitude": 59.95363785306019, "longitude": 17.690648452640364}}, "700243": {"name": "Ekeby", "location": {"latitude": 59.951897568758916, "longitude": 17.670322814406404}}, "700244": {"name": "Trekanten", "location": {"latitude": 59.94725338665621, "longitude": 17.664138015603914}}, "700247": {"name": "Hamra", "location": {"latitude": 59.93521118461618, "longitude": 17.64575250203289}}, "700248": {"name": "Segersberg", "location": {"latitude": 59.93056286877328, "longitude": 17.64107671000757}}, "700249": {"name": "Enstalund", "location": {"latitude": 59.92527566565503, "longitude": 17.641661098550962}}, "700250": {"name": "Ensta", "location": {"latitude": 59.92025808804136, "longitude": 17.64222444819393}}, "700251": {"name": "Bredåkers gård", "location": {"latitude": 59.91279164676026, "longitude": 17.643278095663227}}, "700252": {"name": "Vittulsbergsvägen", "location": {"latitude": 59.90623550263709, "longitude": 17.643434244048706}}, "700254": {"name": "Lidnersgatan", "location": {"latitude": 59.89003857499111, "longitude": 17.654385239779174}}, "700255": {"name": "Marknadsgatan", "location": {"latitude": 59.87926592156853, "longitude": 17.67530921093079}}, "700256": {"name": "Vaksala gärde", "location": {"latitude": 59.872707453584404, "longitude": 17.678780333404124}}, "700258": {"name": "Sparrisgatan", "location": {"latitude": 59.86575739472531, "longitude": 17.681371089269774}}, "700259": {"name": "Samariterhemmet", "location": {"latitude": 59.85540564024039, "longitude": 17.649572500672264}}, "700260": {"name": "Bergsbrunnagatan", "location": {"latitude": 59.855882334085415, "longitude": 17.655274565185245}}, "700262": {"name": "Märstaplan", "location": {"latitude": 59.85415202342101, "longitude": 17.659568951658574}}, "700265": {"name": "Villingegatan", "location": {"latitude": 59.84895704581612, "longitude": 17.66823795573956}}, "700266": {"name": "Kungsporten", "location": {"latitude": 59.8469825721764, "longitude": 17.67389107064307}}, "700268": {"name": "Verkstadsgatan", "location": {"latitude": 59.84933961941798, "longitude": 17.67671770953863}}, "700270": {"name": "Bolandsgatan", "location": {"latitude": 59.84845026796108, "longitude": 17.690604163467547}}, "700271": {"name": "Spikgatan", "location": {"latitude": 59.846450470074, "longitude": 17.68415676183384}}, "700272": {"name": "Rapsgatan norra", "location": {"latitude": 59.84888706780414, "longitude": 17.687684514586273}}, "700274": {"name": "Svanbergsgatan", "location": {"latitude": 59.85558361528637, "longitude": 17.61472554379669}}, "700275": {"name": "Timjansgatan", "location": {"latitude": 59.870890165770284, "longitude": 17.690998977158824}}, "700276": {"name": "Fänkålsgatan", "location": {"latitude": 59.873112407336336, "longitude": 17.687535415261955}}, "700277": {"name": "Kamomillgatan", "location": {"latitude": 59.872769046164464, "longitude": 17.68328383266993}}, "700278": {"name": "Hildur Ottelinsgatan", "location": {"latitude": 59.855795102772845, "longitude": 17.6078120624438}}, "700279": {"name": "Rickomberga", "location": {"latitude": 59.855060549980564, "longitude": 17.609003818093477}}, "700280": {"name": "Myrberga", "location": {"latitude": 59.85536808084069, "longitude": 17.599632633330227}}, "700284": {"name": "Ultunaallén", "location": {"latitude": 59.813192818299925, "longitude": 17.650680835010906}}, "700285": {"name": "Holmvägen", "location": {"latitude": 59.805295075187594, "longitude": 17.652383021192627}}, "700286": {"name": "Herrgårdsvägen", "location": {"latitude": 59.800923246794824, "longitude": 17.654261734298608}}, "700287": {"name": "Lärkvägen", "location": {"latitude": 59.79658206070736, "longitude": 17.65587441863048}}, "700288": {"name": "Ekolnsvägen norra", "location": {"latitude": 59.793486148410786, "longitude": 17.65703908458271}}, "700289": {"name": "Sunnerstabacken", "location": {"latitude": 59.79009843633304, "longitude": 17.65788454363686}}, "700290": {"name": "Mälarvägen", "location": {"latitude": 59.78876059856653, "longitude": 17.650863629070543}}, "700291": {"name": "Rådjursstigen", "location": {"latitude": 59.789080345400095, "longitude": 17.64470039705354}}, "700293": {"name": "Granebergsparken", "location": {"latitude": 59.78781580159833, "longitude": 17.637523964085084}}, "700294": {"name": "Lyssnavägen", "location": {"latitude": 59.786665706209476, "longitude": 17.63436181088708}}, "700296": {"name": "Skarholmen", "location": {"latitude": 59.783258549393615, "longitude": 17.62626813884825}}, "700299": {"name": "Hildvägen", "location": {"latitude": 59.88699453724725, "longitude": 17.63963853947198}}, "700300": {"name": "Bälinge skola", "location": {"latitude": 59.95076392286376, "longitude": 17.531238857506924}}, "700301": {"name": "Lundgården", "location": {"latitude": 59.948099585328286, "longitude": 17.53108250796878}}, "700302": {"name": "Bälinge Centrum", "location": {"latitude": 59.9462946339924, "longitude": 17.53523010586827}}, "700303": {"name": "Prebendevägen", "location": {"latitude": 59.94655427252483, "longitude": 17.540755678305484}}, "700305": {"name": "Högby", "location": {"latitude": 59.95685144518578, "longitude": 17.55844387792934}}, "700306": {"name": "Flädervägen", "location": {"latitude": 59.95883395807319, "longitude": 17.573372271223956}}, "700308": {"name": "Ryttarvägen", "location": {"latitude": 59.95715054216704, "longitude": 17.581070065377272}}, "700309": {"name": "Gråalsvägen", "location": {"latitude": 59.9549249785824, "longitude": 17.584334326096034}}, "700310": {"name": "Lytta", "location": {"latitude": 59.94441070210734, "longitude": 17.59107248527747}}, "700311": {"name": "Ärentuna vägskäl", "location": {"latitude": 59.93838299044458, "longitude": 17.59398697843537}}, "700312": {"name": "Svista", "location": {"latitude": 59.93301497497026, "longitude": 17.596578215518367}}, "700313": {"name": "Stora Vallskog", "location": {"latitude": 59.92686032695981, "longitude": 17.599573330057915}}, "700314": {"name": "Lilla Vallskog", "location": {"latitude": 59.92011857927404, "longitude": 17.602821740795893}}, "700315": {"name": "Ärna bro", "location": {"latitude": 59.91009551974217, "longitude": 17.607696791567164}}, "700316": {"name": "Ärna gård", "location": {"latitude": 59.90492631308887, "longitude": 17.610169369755315}}, "700317": {"name": "Lilla Myrby", "location": {"latitude": 59.89343982610402, "longitude": 17.615675227493025}}, "700320": {"name": "Sverkerskolan", "location": {"latitude": 59.8645795259226, "longitude": 17.62060545778435}}, "700321": {"name": "Wallingatan", "location": {"latitude": 59.86466601986456, "longitude": 17.61823576963754}}, "700323": {"name": "Norrlandsgatan", "location": {"latitude": 59.8617998211748, "longitude": 17.60858308791501}}, "700325": {"name": "Bäverns gränd", "location": {"latitude": 59.85604612346802, "longitude": 17.64486032848676}}, "700326": {"name": "Sturegatan", "location": {"latitude": 59.864521598590564, "longitude": 17.62415496319589}}, "700329": {"name": "Heidenstamsgatan", "location": {"latitude": 59.87658688053386, "longitude": 17.646226842903555}}, "700330": {"name": "Fyrishov", "location": {"latitude": 59.870084488785125, "longitude": 17.625708540160925}}, "700333": {"name": "Kungsängsesplanaden", "location": {"latitude": 59.84934004892896, "longitude": 17.65890876484101}}, "700334": {"name": "Vimpelgatan", "location": {"latitude": 59.84809137878485, "longitude": 17.66278286675982}}, "700335": {"name": "Lilla Ultuna", "location": {"latitude": 59.84363876036518, "longitude": 17.674167602244303}}, "700336": {"name": "Kuggebro", "location": {"latitude": 59.83261448023856, "longitude": 17.69047623216291}}, "700337": {"name": "Vilan", "location": {"latitude": 59.82790365194407, "longitude": 17.694668437257715}}, "700338": {"name": "Lapplandsresan", "location": {"latitude": 59.815785237485485, "longitude": 17.699508957178686}}, "700339": {"name": "Ölandsresan", "location": {"latitude": 59.81415094315927, "longitude": 17.702642749637317}}, "700340": {"name": "Daneport", "location": {"latitude": 59.81093500017025, "longitude": 17.701515340651973}}, "700341": {"name": "Västgötaresan", "location": {"latitude": 59.8095798853922, "longitude": 17.699602570701813}}, "700342": {"name": "Gotlandsresan", "location": {"latitude": 59.8088086008624, "longitude": 17.69642195131667}}, "700343": {"name": "Skåneresan", "location": {"latitude": 59.80791859943822, "longitude": 17.694001144733402}}, "700344": {"name": "Iduns väg", "location": {"latitude": 59.892281726497814, "longitude": 17.638411155582602}}, "700345": {"name": "Bågspännarvägen", "location": {"latitude": 59.88873261381414, "longitude": 17.637965608213864}}, "700346": {"name": "Nyby gård", "location": {"latitude": 59.886078095567846, "longitude": 17.637104923309412}}, "700347": {"name": "Sandels gata", "location": {"latitude": 59.88410706925963, "longitude": 17.635513848291723}}, "700349": {"name": "Moskén", "location": {"latitude": 59.87358452014807, "longitude": 17.637471448102115}}, "700353": {"name": "Källarbäcksvägen", "location": {"latitude": 59.826610503648226, "longitude": 17.69343610686702}}, "700354": {"name": "Rörbäcksvägen", "location": {"latitude": 59.822760671016354, "longitude": 17.69330748044595}}, "700355": {"name": "Handarbetsvägen", "location": {"latitude": 59.820801282362346, "longitude": 17.690950139725373}}, "700356": {"name": "Bonadsvägen", "location": {"latitude": 59.81865542469762, "longitude": 17.690953731410712}}, "700358": {"name": "Sävja kyrka", "location": {"latitude": 59.82067796095879, "longitude": 17.70265713494513}}, "700360": {"name": "Fiskgjusevägen", "location": {"latitude": 59.81997019286491, "longitude": 17.709391979400408}}, "700361": {"name": "Hultvägen", "location": {"latitude": 59.81833210492628, "longitude": 17.714629208503588}}, "700362": {"name": "Backmovägen", "location": {"latitude": 59.815905687253135, "longitude": 17.71787757986307}}, "700363": {"name": "Nyckelaxet", "location": {"latitude": 59.814647965389106, "longitude": 17.724098243561112}}, "700364": {"name": "Vävstolsvägen", "location": {"latitude": 59.814881300973404, "longitude": 17.68364570705859}}, "700365": {"name": "Kardvägen", "location": {"latitude": 59.814061311224606, "longitude": 17.688252133486312}}, "700366": {"name": "Nåntunaparken", "location": {"latitude": 59.815796649300076, "longitude": 17.693715875153945}}, "700367": {"name": "Nämndemansvägen", "location": {"latitude": 59.8212521270699, "longitude": 17.697073386281712}}, "700368": {"name": "Tunabergsallén", "location": {"latitude": 59.87851794670362, "longitude": 17.622883224640837}}, "700369": {"name": "Tunabackar", "location": {"latitude": 59.87555197923591, "longitude": 17.624417934604054}}, "700370": {"name": "Söderforsgatan", "location": {"latitude": 59.87841008369459, "longitude": 17.592694029670735}}, "700371": {"name": "Hållnäsgatan", "location": {"latitude": 59.87749224610817, "longitude": 17.59019804053245}}, "700373": {"name": "Librobäck", "location": {"latitude": 59.87018918529804, "longitude": 17.60369834390252}}, "700374": {"name": "Gimogatan", "location": {"latitude": 59.86889580204601, "longitude": 17.607681578667385}}, "700375": {"name": "Skeppet", "location": {"latitude": 59.86996992488169, "longitude": 17.607918240356145}}, "700377": {"name": "Fyrisvallsgatan", "location": {"latitude": 59.867520137884256, "longitude": 17.622211850506183}}, "700379": {"name": "Danmarksgatan", "location": {"latitude": 59.854310299635586, "longitude": 17.672517056203898}}, "700381": {"name": "Nymansgatan", "location": {"latitude": 59.85360989070518, "longitude": 17.680740982655973}}, "700382": {"name": "Sylveniusgatan", "location": {"latitude": 59.8554965218327, "longitude": 17.690092412121594}}, "700384": {"name": "Döbelnsgatan", "location": {"latitude": 59.844762693910816, "longitude": 17.633104461188182}}, "700385": {"name": "Kåbovägen", "location": {"latitude": 59.843115236751764, "longitude": 17.628892871657513}}, "700387": {"name": "Ulleråker norra", "location": {"latitude": 59.832673607478505, "longitude": 17.643107867138482}}, "700388": {"name": "Hammarby kyrkogård", "location": {"latitude": 59.827636292709144, "longitude": 17.64443542541921}}, "700389": {"name": "Genetikvägen", "location": {"latitude": 59.81592235939832, "longitude": 17.64874597074281}}, "700391": {"name": "Tjädervägen", "location": {"latitude": 59.79445554097039, "longitude": 17.641682627350033}}, "700392": {"name": "Svankärrsvägen", "location": {"latitude": 59.79243706852694, "longitude": 17.643495640248663}}, "700393": {"name": "Trasthagen", "location": {"latitude": 59.79020326074956, "longitude": 17.64529658266366}}, "700394": {"name": "Brostugevägen", "location": {"latitude": 59.78871801397405, "longitude": 17.659001451540604}}, "700395": {"name": "Kålsängsgränd", "location": {"latitude": 59.85538374912617, "longitude": 17.64471669002875}}, "700396": {"name": "Kungsängstorg", "location": {"latitude": 59.85409439385166, "longitude": 17.647037059374483}}, "700397": {"name": "Islandsgatan", "location": {"latitude": 59.8522260995874, "longitude": 17.64966430602061}}, "700398": {"name": "Siktargatan", "location": {"latitude": 59.8508940783515, "longitude": 17.651178862938732}}, "700399": {"name": "Sågargatan", "location": {"latitude": 59.8490668417565, "longitude": 17.653433174298453}}, "700400": {"name": "Lägerhyddsvägen", "location": {"latitude": 59.83930504137172, "longitude": 17.65105486270087}}, "700401": {"name": "Kungshörnet", "location": {"latitude": 59.84465692265209, "longitude": 17.666302738287012}}, "700402": {"name": "Stångjärnsgatan", "location": {"latitude": 59.847694220763394, "longitude": 17.677517556500455}}, "700403": {"name": "Boländerna", "location": {"latitude": 59.85250861392626, "longitude": 17.66977488533838}}, "700404": {"name": "Gullvivevägen", "location": {"latitude": 59.79165448342017, "longitude": 17.623572556225337}}, "700406": {"name": "Slånvägen", "location": {"latitude": 59.795259992785404, "longitude": 17.61993839627034}}, "700407": {"name": "Granelidsvägen", "location": {"latitude": 59.79981459775708, "longitude": 17.615178923543336}}, "700408": {"name": "Vårdsätravik", "location": {"latitude": 59.80113138287077, "longitude": 17.60951266444311}}, "700409": {"name": "Lurbo bro", "location": {"latitude": 59.805644820454546, "longitude": 17.605764538924763}}, "700411": {"name": "Gottsundavägen", "location": {"latitude": 59.80849204155514, "longitude": 17.607646804660657}}, "700412": {"name": "Djurgårdsvägen", "location": {"latitude": 59.81410596624381, "longitude": 17.610730590872272}}, "700413": {"name": "Källbovägen", "location": {"latitude": 59.81680524101754, "longitude": 17.61226705262679}}, "700414": {"name": "Martallsvägen", "location": {"latitude": 59.81970272941123, "longitude": 17.616363986872845}}}